{
    "type": "FeatureCollection",
    "features": [
        {
            "type": "Feature",
            "properties": {
                "name": "巴轆公園"
            },
            "geometry": {
                "type": "Point",
                "coordinates": [
                    120.487785,
                    22.727428
                ]
            }
        },
        {
            "type": "Feature",
            "properties": {
                "name": "內埔埔興公園"
            },
            "geometry": {
                "type": "Point",
                "coordinates": [
                    120.568188,
                    22.607939
                ]
            }
        },
        {
            "type": "Feature",
            "properties": {
                "name": "光明公園(南華路小公園)"
            },
            "geometry": {
                "type": "Point",
                "coordinates": [
                    120.574376,
                    22.615683
                ]
            }
        },
        {
            "type": "Feature",
            "properties": {
                "name": "竹田謝馬湖公園遊戲場特色遊具建置"
            },
            "geometry": {
                "type": "Point",
                "coordinates": [
                    120.54208,
                    22.585299
                ]
            }
        },
        {
            "type": "Feature",
            "properties": {
                "name": "車城福安宮附近特色遊具建置"
            },
            "geometry": {
                "type": "Point",
                "coordinates": [
                    120.709616,
                    22.071356
                ]
            }
        },
        {
            "type": "Feature",
            "properties": {
                "name": "鐵店村籃球場"
            },
            "geometry": {
                "type": "Point",
                "coordinates": [
                    120.50004,
                    22.779016
                ]
            }
        },
        {
            "type": "Feature",
            "properties": {
                "name": "里港河濱公園"
            },
            "geometry": {
                "type": "Point",
                "coordinates": [
                    120.496569,
                    22.785063
                ]
            }
        },
        {
            "type": "Feature",
            "properties": {
                "name": "阿里港公園"
            },
            "geometry": {
                "type": "Point",
                "coordinates": [
                    120.49478,
                    22.780016
                ]
            }
        },
        {
            "type": "Feature",
            "properties": {
                "name": "佳冬運動公園"
            },
            "geometry": {
                "type": "Point",
                "coordinates": [
                    120.57625,
                    22.424489
                ]
            }
        },
        {
            "type": "Feature",
            "properties": {
                "name": "佳冬公園"
            },
            "geometry": {
                "type": "Point",
                "coordinates": [
                    120.545545,
                    22.417343
                ]
            }
        },
        {
            "type": "Feature",
            "properties": {
                "name": "來義鄉新來義永久屋基地特色遊具建置"
            },
            "geometry": {
                "type": "Point",
                "coordinates": [
                    120.581075,
                    22.508164
                ]
            }
        },
        {
            "type": "Feature",
            "properties": {
                "name": "兒童公園特色遊具建置"
            },
            "geometry": {
                "type": "Point",
                "coordinates": [
                    120.456662,
                    22.464806
                ]
            }
        },
        {
            "type": "Feature",
            "properties": {
                "name": "嘉蓮公園"
            },
            "geometry": {
                "type": "Point",
                "coordinates": [
                    120.450658,
                    22.456207
                ]
            }
        },
        {
            "type": "Feature",
            "properties": {
                "name": "共和街旁空地"
            },
            "geometry": {
                "type": "Point",
                "coordinates": [
                    120.454799,
                    22.463413
                ]
            }
        },
        {
            "type": "Feature",
            "properties": {
                "name": "枋山社區公園"
            },
            "geometry": {
                "type": "Point",
                "coordinates": [
                    120.660633,
                    22.247544
                ]
            }
        },
        {
            "type": "Feature",
            "properties": {
                "name": "嘉和公園"
            },
            "geometry": {
                "type": "Point",
                "coordinates": [
                    120.626429,
                    22.323962
                ]
            }
        },
        {
            "type": "Feature",
            "properties": {
                "name": "加祿公園"
            },
            "geometry": {
                "type": "Point",
                "coordinates": [
                    120.616342,
                    22.332478
                ]
            }
        },
        {
            "type": "Feature",
            "properties": {
                "name": "水底寮市場街旁綠地遊戲場"
            },
            "geometry": {
                "type": "Point",
                "coordinates": [
                    120.598072,
                    22.387457
                ]
            }
        },
        {
            "type": "Feature",
            "properties": {
                "name": "林邊火車站附近特色遊具建置"
            },
            "geometry": {
                "type": "Point",
                "coordinates": [
                    120.514766,
                    22.432005
                ]
            }
        },
        {
            "type": "Feature",
            "properties": {
                "name": "林邊兒童運動公園"
            },
            "geometry": {
                "type": "Point",
                "coordinates": [
                    120.521536,
                    22.44064
                ]
            }
        },
        {
            "type": "Feature",
            "properties": {
                "name": "華森克里克公園（屏東農科）"
            },
            "geometry": {
                "type": "Point",
                "coordinates": [
                    120.53457,
                    22.714897
                ]
            }
        },
        {
            "type": "Feature",
            "properties": {
                "name": "南州運動公園特色遊具建置"
            },
            "geometry": {
                "type": "Point",
                "coordinates": [
                    120.512686,
                    22.491359
                ]
            }
        },
        {
            "type": "Feature",
            "properties": {
                "name": "縣民公園"
            },
            "geometry": {
                "type": "Point",
                "coordinates": [
                    120.494405,
                    22.657872
                ]
            }
        },
        {
            "type": "Feature",
            "properties": {
                "name": "竹圍巷公園"
            },
            "geometry": {
                "type": "Point",
                "coordinates": [
                    120.471352,
                    22.66967
                ]
            }
        },
        {
            "type": "Feature",
            "properties": {
                "name": "民學公園"
            },
            "geometry": {
                "type": "Point",
                "coordinates": [
                    120.502585,
                    22.673412
                ]
            }
        },
        {
            "type": "Feature",
            "properties": {
                "name": "高豐公園"
            },
            "geometry": {
                "type": "Point",
                "coordinates": [
                    120.503713,
                    22.67546
                ]
            }
        },
        {
            "type": "Feature",
            "properties": {
                "name": "武愛公園"
            },
            "geometry": {
                "type": "Point",
                "coordinates": [
                    120.47842,
                    22.65705
                ]
            }
        },
        {
            "type": "Feature",
            "properties": {
                "name": "清世公園"
            },
            "geometry": {
                "type": "Point",
                "coordinates": [
                    120.47488,
                    22.65615
                ]
            }
        },
        {
            "type": "Feature",
            "properties": {
                "name": "興豐公園"
            },
            "geometry": {
                "type": "Point",
                "coordinates": [
                    120.508404,
                    22.681243
                ]
            }
        },
        {
            "type": "Feature",
            "properties": {
                "name": "上興公園"
            },
            "geometry": {
                "type": "Point",
                "coordinates": [
                    120.510053,
                    22.682822
                ]
            }
        },
        {
            "type": "Feature",
            "properties": {
                "name": "和平公園"
            },
            "geometry": {
                "type": "Point",
                "coordinates": [
                    120.501224,
                    22.685777
                ]
            }
        },
        {
            "type": "Feature",
            "properties": {
                "name": "新興公園"
            },
            "geometry": {
                "type": "Point",
                "coordinates": [
                    120.484682,
                    22.645613
                ]
            }
        },
        {
            "type": "Feature",
            "properties": {
                "name": "公21公園(永大共融公園)"
            },
            "geometry": {
                "type": "Point",
                "coordinates": [
                    120.477794,
                    22.660562
                ]
            }
        },
        {
            "type": "Feature",
            "properties": {
                "name": "屏東縣立圖書館復興分館"
            },
            "geometry": {
                "type": "Point",
                "coordinates": [
                    120.479896,
                    22.660274
                ]
            }
        },
        {
            "type": "Feature",
            "properties": {
                "name": "武立公園"
            },
            "geometry": {
                "type": "Point",
                "coordinates": [
                    120.474556,
                    22.65923
                ]
            }
        },
        {
            "type": "Feature",
            "properties": {
                "name": "大武路公園"
            },
            "geometry": {
                "type": "Point",
                "coordinates": [
                    120.472726,
                    22.662078
                ]
            }
        },
        {
            "type": "Feature",
            "properties": {
                "name": "武順街135巷小公園"
            },
            "geometry": {
                "type": "Point",
                "coordinates": [
                    120.47179,
                    22.656216
                ]
            }
        },
        {
            "type": "Feature",
            "properties": {
                "name": "屏東公園"
            },
            "geometry": {
                "type": "Point",
                "coordinates": [
                    120.492311,
                    22.674675
                ]
            }
        },
        {
            "type": "Feature",
            "properties": {
                "name": "廣興公園"
            },
            "geometry": {
                "type": "Point",
                "coordinates": [
                    120.487248,
                    22.691612
                ]
            }
        },
        {
            "type": "Feature",
            "properties": {
                "name": "復興公園"
            },
            "geometry": {
                "type": "Point",
                "coordinates": [
                    120.482475,
                    22.658653
                ]
            }
        },
        {
            "type": "Feature",
            "properties": {
                "name": "永新公園"
            },
            "geometry": {
                "type": "Point",
                "coordinates": [
                    120.478324,
                    22.676323
                ]
            }
        },
        {
            "type": "Feature",
            "properties": {
                "name": "屏東市極限運動場"
            },
            "geometry": {
                "type": "Point",
                "coordinates": [
                    120.483963,
                    22.676659
                ]
            }
        },
        {
            "type": "Feature",
            "properties": {
                "name": "忠孝國小與公園"
            },
            "geometry": {
                "type": "Point",
                "coordinates": [
                    120.504414,
                    22.676705
                ]
            }
        },
        {
            "type": "Feature",
            "properties": {
                "name": "蘭州街特色公園(勝利動物溜滑梯公園)"
            },
            "geometry": {
                "type": "Point",
                "coordinates": [
                    120.485166,
                    22.679986
                ]
            }
        },
        {
            "type": "Feature",
            "properties": {
                "name": "千禧公園"
            },
            "geometry": {
                "type": "Point",
                "coordinates": [
                    120.497997,
                    22.678968
                ]
            }
        },
        {
            "type": "Feature",
            "properties": {
                "name": "萬年公園"
            },
            "geometry": {
                "type": "Point",
                "coordinates": [
                    120.484851,
                    22.664582
                ]
            }
        },
        {
            "type": "Feature",
            "properties": {
                "name": "北興公園"
            },
            "geometry": {
                "type": "Point",
                "coordinates": [
                    120.495323,
                    22.689346
                ]
            }
        },
        {
            "type": "Feature",
            "properties": {
                "name": "崇蘭環保公園"
            },
            "geometry": {
                "type": "Point",
                "coordinates": [
                    120.480233,
                    22.686893
                ]
            }
        },
        {
            "type": "Feature",
            "properties": {
                "name": "永大路公園"
            },
            "geometry": {
                "type": "Point",
                "coordinates": [
                    120.477852,
                    22.659869
                ]
            }
        },
        {
            "type": "Feature",
            "properties": {
                "name": "武成公園"
            },
            "geometry": {
                "type": "Point",
                "coordinates": [
                    120.47842,
                    22.65705
                ]
            }
        },
        {
            "type": "Feature",
            "properties": {
                "name": "中正市地重劃區遊樂場"
            },
            "geometry": {
                "type": "Point",
                "coordinates": [
                    120.47842,
                    22.68864
                ]
            }
        },
        {
            "type": "Feature",
            "properties": {
                "name": "石牌公園特色遊具建置"
            },
            "geometry": {
                "type": "Point",
                "coordinates": [
                    120.742095,
                    22.004418
                ]
            }
        },
        {
            "type": "Feature",
            "properties": {
                "name": "屏東縣新園鄉立圖書館共和分館"
            },
            "geometry": {
                "type": "Point",
                "coordinates": [
                    120.438544,
                    22.479052
                ]
            }
        },
        {
            "type": "Feature",
            "properties": {
                "name": "第三公園"
            },
            "geometry": {
                "type": "Point",
                "coordinates": [
                    120.74843,
                    22.005599
                ]
            }
        },
        {
            "type": "Feature",
            "properties": {
                "name": "崁頂運動公園特色遊具建置"
            },
            "geometry": {
                "type": "Point",
                "coordinates": [
                    120.506406,
                    22.515555
                ]
            }
        },
        {
            "type": "Feature",
            "properties": {
                "name": "小琉球全人關懷園區特色遊具建置"
            },
            "geometry": {
                "type": "Point",
                "coordinates": [
                    120.386115,
                    22.347417
                ]
            }
        },
        {
            "type": "Feature",
            "properties": {
                "name": "小叮噹公園"
            },
            "geometry": {
                "type": "Point",
                "coordinates": [
                    120.60229,
                    22.824457
                ]
            }
        },
        {
            "type": "Feature",
            "properties": {
                "name": "新埤鄉綜合休閒公園"
            },
            "geometry": {
                "type": "Point",
                "coordinates": [
                    120.580368,
                    22.467123
                ]
            }
        },
        {
            "type": "Feature",
            "properties": {
                "name": "新園鄉共融式公園"
            },
            "geometry": {
                "type": "Point",
                "coordinates": [
                    120.460019,
                    22.543938
                ]
            }
        },
        {
            "type": "Feature",
            "properties": {
                "name": "屏東縣新園鄉立圖書館共和分館"
            },
            "geometry": {
                "type": "Point",
                "coordinates": [
                    120.440704,
                    22.478597
                ]
            }
        },
        {
            "type": "Feature",
            "properties": {
                "name": "萬丹鄉公園(萬丹鄉立游泳池)"
            },
            "geometry": {
                "type": "Point",
                "coordinates": [
                    120.487221,
                    22.594126
                ]
            }
        },
        {
            "type": "Feature",
            "properties": {
                "name": "萬巒兒童親水公園"
            },
            "geometry": {
                "type": "Point",
                "coordinates": [
                    120.578271,
                    22.586635
                ]
            }
        },
        {
            "type": "Feature",
            "properties": {
                "name": "潮州社福園區特色遊具建置"
            },
            "geometry": {
                "type": "Point",
                "coordinates": [
                    120.538654,
                    22.532551
                ]
            }
        },
        {
            "type": "Feature",
            "properties": {
                "name": "三水公園"
            },
            "geometry": {
                "type": "Point",
                "coordinates": [
                    120.542284,
                    22.55816
                ]
            }
        },
        {
            "type": "Feature",
            "properties": {
                "name": "潮州運動公園"
            },
            "geometry": {
                "type": "Point",
                "coordinates": [
                    120.548184,
                    22.544449
                ]
            }
        },
        {
            "type": "Feature",
            "properties": {
                "name": "公兒四(潮昇)兒童"
            },
            "geometry": {
                "type": "Point",
                "coordinates": [
                    120.54652,
                    22.55652
                ]
            }
        },
        {
            "type": "Feature",
            "properties": {
                "name": "麟洛車站花轎遊戲場"
            },
            "geometry": {
                "type": "Point",
                "coordinates": [
                    120.51435,
                    22.63483
                ]
            }
        },
        {
            "type": "Feature",
            "properties": {
                "name": "鹽埔鄉家庭福利中心"
            },
            "geometry": {
                "type": "Point",
                "coordinates": [
                    120.577915,
                    22.760475
                ]
            }
        },
        {
            "type": "Feature",
            "properties": {
                "name": "鹽埔兒童重劃公園"
            },
            "geometry": {
                "type": "Point",
                "coordinates": [
                    120.571444,
                    22.753449
                ]
            }
        },
        {
            "type": "Feature",
            "properties": {
                "name": "鹽埔雙新公園"
            },
            "geometry": {
                "type": "Point",
                "coordinates": [
                    120.555482,
                    22.730873
                ]
            }
        },
        {
            "type": "Feature",
            "properties": {
                "name": "鹽埔公(兒)四"
            },
            "geometry": {
                "type": "Point",
                "coordinates": [
                    120.572731,
                    22.752925
                ]
            }
        },
        {
            "type": "Feature",
            "properties": {
                "name": "巴轆公園"
            },
            "geometry": {
                "type": "Point",
                "coordinates": [
                    120.487785,
                    22.727428
                ]
            }
        },
        {
            "type": "Feature",
            "properties": {
                "name": "內埔埔興公園"
            },
            "geometry": {
                "type": "Point",
                "coordinates": [
                    120.568188,
                    22.607939
                ]
            }
        },
        {
            "type": "Feature",
            "properties": {
                "name": "光明公園(南華路小公園)"
            },
            "geometry": {
                "type": "Point",
                "coordinates": [
                    120.574376,
                    22.615683
                ]
            }
        },
        {
            "type": "Feature",
            "properties": {
                "name": "竹田謝馬湖公園遊戲場特色遊具建置"
            },
            "geometry": {
                "type": "Point",
                "coordinates": [
                    120.54208,
                    22.585299
                ]
            }
        },
        {
            "type": "Feature",
            "properties": {
                "name": "車城福安宮附近特色遊具建置"
            },
            "geometry": {
                "type": "Point",
                "coordinates": [
                    120.709616,
                    22.071356
                ]
            }
        },
        {
            "type": "Feature",
            "properties": {
                "name": "鐵店村籃球場"
            },
            "geometry": {
                "type": "Point",
                "coordinates": [
                    120.50004,
                    22.779016
                ]
            }
        },
        {
            "type": "Feature",
            "properties": {
                "name": "里港河濱公園"
            },
            "geometry": {
                "type": "Point",
                "coordinates": [
                    120.496569,
                    22.785063
                ]
            }
        },
        {
            "type": "Feature",
            "properties": {
                "name": "阿里港公園"
            },
            "geometry": {
                "type": "Point",
                "coordinates": [
                    120.49478,
                    22.780016
                ]
            }
        },
        {
            "type": "Feature",
            "properties": {
                "name": "佳冬運動公園"
            },
            "geometry": {
                "type": "Point",
                "coordinates": [
                    120.57625,
                    22.424489
                ]
            }
        },
        {
            "type": "Feature",
            "properties": {
                "name": "佳冬公園"
            },
            "geometry": {
                "type": "Point",
                "coordinates": [
                    120.545545,
                    22.417343
                ]
            }
        },
        {
            "type": "Feature",
            "properties": {
                "name": "來義鄉新來義永久屋基地特色遊具建置"
            },
            "geometry": {
                "type": "Point",
                "coordinates": [
                    120.581075,
                    22.508164
                ]
            }
        },
        {
            "type": "Feature",
            "properties": {
                "name": "兒童公園特色遊具建置"
            },
            "geometry": {
                "type": "Point",
                "coordinates": [
                    120.456662,
                    22.464806
                ]
            }
        },
        {
            "type": "Feature",
            "properties": {
                "name": "嘉蓮公園"
            },
            "geometry": {
                "type": "Point",
                "coordinates": [
                    120.450658,
                    22.456207
                ]
            }
        },
        {
            "type": "Feature",
            "properties": {
                "name": "共和街旁空地"
            },
            "geometry": {
                "type": "Point",
                "coordinates": [
                    120.454799,
                    22.463413
                ]
            }
        },
        {
            "type": "Feature",
            "properties": {
                "name": "枋山社區公園"
            },
            "geometry": {
                "type": "Point",
                "coordinates": [
                    120.660633,
                    22.247544
                ]
            }
        },
        {
            "type": "Feature",
            "properties": {
                "name": "嘉和公園"
            },
            "geometry": {
                "type": "Point",
                "coordinates": [
                    120.626429,
                    22.323962
                ]
            }
        },
        {
            "type": "Feature",
            "properties": {
                "name": "加祿公園"
            },
            "geometry": {
                "type": "Point",
                "coordinates": [
                    120.616342,
                    22.332478
                ]
            }
        },
        {
            "type": "Feature",
            "properties": {
                "name": "水底寮市場街旁綠地遊戲場"
            },
            "geometry": {
                "type": "Point",
                "coordinates": [
                    120.598072,
                    22.387457
                ]
            }
        },
        {
            "type": "Feature",
            "properties": {
                "name": "林邊火車站附近特色遊具建置"
            },
            "geometry": {
                "type": "Point",
                "coordinates": [
                    120.514766,
                    22.432005
                ]
            }
        },
        {
            "type": "Feature",
            "properties": {
                "name": "林邊兒童運動公園"
            },
            "geometry": {
                "type": "Point",
                "coordinates": [
                    120.521536,
                    22.44064
                ]
            }
        },
        {
            "type": "Feature",
            "properties": {
                "name": "華森克里克公園（屏東農科）"
            },
            "geometry": {
                "type": "Point",
                "coordinates": [
                    120.53457,
                    22.714897
                ]
            }
        },
        {
            "type": "Feature",
            "properties": {
                "name": "南州運動公園特色遊具建置"
            },
            "geometry": {
                "type": "Point",
                "coordinates": [
                    120.512686,
                    22.491359
                ]
            }
        },
        {
            "type": "Feature",
            "properties": {
                "name": "縣民公園"
            },
            "geometry": {
                "type": "Point",
                "coordinates": [
                    120.494405,
                    22.657872
                ]
            }
        },
        {
            "type": "Feature",
            "properties": {
                "name": "竹圍巷公園"
            },
            "geometry": {
                "type": "Point",
                "coordinates": [
                    120.471352,
                    22.66967
                ]
            }
        },
        {
            "type": "Feature",
            "properties": {
                "name": "民學公園"
            },
            "geometry": {
                "type": "Point",
                "coordinates": [
                    120.502585,
                    22.673412
                ]
            }
        },
        {
            "type": "Feature",
            "properties": {
                "name": "高豐公園"
            },
            "geometry": {
                "type": "Point",
                "coordinates": [
                    120.503713,
                    22.67546
                ]
            }
        },
        {
            "type": "Feature",
            "properties": {
                "name": "武愛公園"
            },
            "geometry": {
                "type": "Point",
                "coordinates": [
                    120.47842,
                    22.65705
                ]
            }
        },
        {
            "type": "Feature",
            "properties": {
                "name": "清世公園"
            },
            "geometry": {
                "type": "Point",
                "coordinates": [
                    120.47488,
                    22.65615
                ]
            }
        },
        {
            "type": "Feature",
            "properties": {
                "name": "興豐公園"
            },
            "geometry": {
                "type": "Point",
                "coordinates": [
                    120.508404,
                    22.681243
                ]
            }
        },
        {
            "type": "Feature",
            "properties": {
                "name": "上興公園"
            },
            "geometry": {
                "type": "Point",
                "coordinates": [
                    120.510053,
                    22.682822
                ]
            }
        },
        {
            "type": "Feature",
            "properties": {
                "name": "和平公園"
            },
            "geometry": {
                "type": "Point",
                "coordinates": [
                    120.501224,
                    22.685777
                ]
            }
        },
        {
            "type": "Feature",
            "properties": {
                "name": "新興公園"
            },
            "geometry": {
                "type": "Point",
                "coordinates": [
                    120.484682,
                    22.645613
                ]
            }
        },
        {
            "type": "Feature",
            "properties": {
                "name": "公21公園(永大共融公園)"
            },
            "geometry": {
                "type": "Point",
                "coordinates": [
                    120.477794,
                    22.660562
                ]
            }
        },
        {
            "type": "Feature",
            "properties": {
                "name": "屏東縣立圖書館復興分館"
            },
            "geometry": {
                "type": "Point",
                "coordinates": [
                    120.479896,
                    22.660274
                ]
            }
        },
        {
            "type": "Feature",
            "properties": {
                "name": "武立公園"
            },
            "geometry": {
                "type": "Point",
                "coordinates": [
                    120.474556,
                    22.65923
                ]
            }
        },
        {
            "type": "Feature",
            "properties": {
                "name": "大武路公園"
            },
            "geometry": {
                "type": "Point",
                "coordinates": [
                    120.472726,
                    22.662078
                ]
            }
        },
        {
            "type": "Feature",
            "properties": {
                "name": "武順街135巷小公園"
            },
            "geometry": {
                "type": "Point",
                "coordinates": [
                    120.47179,
                    22.656216
                ]
            }
        },
        {
            "type": "Feature",
            "properties": {
                "name": "屏東公園"
            },
            "geometry": {
                "type": "Point",
                "coordinates": [
                    120.492311,
                    22.674675
                ]
            }
        },
        {
            "type": "Feature",
            "properties": {
                "name": "廣興公園"
            },
            "geometry": {
                "type": "Point",
                "coordinates": [
                    120.487248,
                    22.691612
                ]
            }
        },
        {
            "type": "Feature",
            "properties": {
                "name": "復興公園"
            },
            "geometry": {
                "type": "Point",
                "coordinates": [
                    120.482475,
                    22.658653
                ]
            }
        },
        {
            "type": "Feature",
            "properties": {
                "name": "永新公園"
            },
            "geometry": {
                "type": "Point",
                "coordinates": [
                    120.478324,
                    22.676323
                ]
            }
        },
        {
            "type": "Feature",
            "properties": {
                "name": "屏東市極限運動場"
            },
            "geometry": {
                "type": "Point",
                "coordinates": [
                    120.483963,
                    22.676659
                ]
            }
        },
        {
            "type": "Feature",
            "properties": {
                "name": "忠孝國小與公園"
            },
            "geometry": {
                "type": "Point",
                "coordinates": [
                    120.504414,
                    22.676705
                ]
            }
        },
        {
            "type": "Feature",
            "properties": {
                "name": "蘭州街特色公園(勝利動物溜滑梯公園)"
            },
            "geometry": {
                "type": "Point",
                "coordinates": [
                    120.485166,
                    22.679986
                ]
            }
        },
        {
            "type": "Feature",
            "properties": {
                "name": "千禧公園"
            },
            "geometry": {
                "type": "Point",
                "coordinates": [
                    120.497997,
                    22.678968
                ]
            }
        },
        {
            "type": "Feature",
            "properties": {
                "name": "萬年公園"
            },
            "geometry": {
                "type": "Point",
                "coordinates": [
                    120.484851,
                    22.664582
                ]
            }
        },
        {
            "type": "Feature",
            "properties": {
                "name": "北興公園"
            },
            "geometry": {
                "type": "Point",
                "coordinates": [
                    120.495323,
                    22.689346
                ]
            }
        },
        {
            "type": "Feature",
            "properties": {
                "name": "崇蘭環保公園"
            },
            "geometry": {
                "type": "Point",
                "coordinates": [
                    120.480233,
                    22.686893
                ]
            }
        },
        {
            "type": "Feature",
            "properties": {
                "name": "永大路公園"
            },
            "geometry": {
                "type": "Point",
                "coordinates": [
                    120.477852,
                    22.659869
                ]
            }
        },
        {
            "type": "Feature",
            "properties": {
                "name": "武成公園"
            },
            "geometry": {
                "type": "Point",
                "coordinates": [
                    120.47842,
                    22.65705
                ]
            }
        },
        {
            "type": "Feature",
            "properties": {
                "name": "中正市地重劃區遊樂場"
            },
            "geometry": {
                "type": "Point",
                "coordinates": [
                    120.47842,
                    22.68864
                ]
            }
        },
        {
            "type": "Feature",
            "properties": {
                "name": "石牌公園特色遊具建置"
            },
            "geometry": {
                "type": "Point",
                "coordinates": [
                    120.742095,
                    22.004418
                ]
            }
        },
        {
            "type": "Feature",
            "properties": {
                "name": "屏東縣新園鄉立圖書館共和分館"
            },
            "geometry": {
                "type": "Point",
                "coordinates": [
                    120.438544,
                    22.479052
                ]
            }
        },
        {
            "type": "Feature",
            "properties": {
                "name": "第三公園"
            },
            "geometry": {
                "type": "Point",
                "coordinates": [
                    120.74843,
                    22.005599
                ]
            }
        },
        {
            "type": "Feature",
            "properties": {
                "name": "崁頂運動公園特色遊具建置"
            },
            "geometry": {
                "type": "Point",
                "coordinates": [
                    120.506406,
                    22.515555
                ]
            }
        },
        {
            "type": "Feature",
            "properties": {
                "name": "小琉球全人關懷園區特色遊具建置"
            },
            "geometry": {
                "type": "Point",
                "coordinates": [
                    120.386115,
                    22.347417
                ]
            }
        },
        {
            "type": "Feature",
            "properties": {
                "name": "小叮噹公園"
            },
            "geometry": {
                "type": "Point",
                "coordinates": [
                    120.60229,
                    22.824457
                ]
            }
        },
        {
            "type": "Feature",
            "properties": {
                "name": "新埤鄉綜合休閒公園"
            },
            "geometry": {
                "type": "Point",
                "coordinates": [
                    120.580368,
                    22.467123
                ]
            }
        },
        {
            "type": "Feature",
            "properties": {
                "name": "新園鄉共融式公園"
            },
            "geometry": {
                "type": "Point",
                "coordinates": [
                    120.460019,
                    22.543938
                ]
            }
        },
        {
            "type": "Feature",
            "properties": {
                "name": "屏東縣新園鄉立圖書館共和分館"
            },
            "geometry": {
                "type": "Point",
                "coordinates": [
                    120.440704,
                    22.478597
                ]
            }
        },
        {
            "type": "Feature",
            "properties": {
                "name": "萬丹鄉公園(萬丹鄉立游泳池)"
            },
            "geometry": {
                "type": "Point",
                "coordinates": [
                    120.487221,
                    22.594126
                ]
            }
        },
        {
            "type": "Feature",
            "properties": {
                "name": "萬巒兒童親水公園"
            },
            "geometry": {
                "type": "Point",
                "coordinates": [
                    120.578271,
                    22.586635
                ]
            }
        },
        {
            "type": "Feature",
            "properties": {
                "name": "潮州社福園區特色遊具建置"
            },
            "geometry": {
                "type": "Point",
                "coordinates": [
                    120.538654,
                    22.532551
                ]
            }
        },
        {
            "type": "Feature",
            "properties": {
                "name": "三水公園"
            },
            "geometry": {
                "type": "Point",
                "coordinates": [
                    120.542284,
                    22.55816
                ]
            }
        },
        {
            "type": "Feature",
            "properties": {
                "name": "潮州運動公園"
            },
            "geometry": {
                "type": "Point",
                "coordinates": [
                    120.548184,
                    22.544449
                ]
            }
        },
        {
            "type": "Feature",
            "properties": {
                "name": "公兒四(潮昇)兒童"
            },
            "geometry": {
                "type": "Point",
                "coordinates": [
                    120.54652,
                    22.55652
                ]
            }
        },
        {
            "type": "Feature",
            "properties": {
                "name": "麟洛車站花轎遊戲場"
            },
            "geometry": {
                "type": "Point",
                "coordinates": [
                    120.51435,
                    22.63483
                ]
            }
        },
        {
            "type": "Feature",
            "properties": {
                "name": "鹽埔鄉家庭福利中心"
            },
            "geometry": {
                "type": "Point",
                "coordinates": [
                    120.577915,
                    22.760475
                ]
            }
        },
        {
            "type": "Feature",
            "properties": {
                "name": "鹽埔兒童重劃公園"
            },
            "geometry": {
                "type": "Point",
                "coordinates": [
                    120.571444,
                    22.753449
                ]
            }
        },
        {
            "type": "Feature",
            "properties": {
                "name": "鹽埔雙新公園"
            },
            "geometry": {
                "type": "Point",
                "coordinates": [
                    120.555482,
                    22.730873
                ]
            }
        },
        {
            "type": "Feature",
            "properties": {
                "name": "鹽埔公(兒)四"
            },
            "geometry": {
                "type": "Point",
                "coordinates": [
                    120.572731,
                    22.752925
                ]
            }
        }
    ]
}